header: 
  seq: 5404
  stamp: 
    secs: 0
    nsecs:         0
  frame_id: ''
pose: 
  pose: 
    position: 
      x: 4.05406518
      y: -2.0450092
      z: -1.6942243
    orientation: 
      x: 0.00603756
      y: 0.02416323
      z: -0.7664251
      w: 0.64185056
  covariance: [0.0, 0.0, 0.0, 0.0, 0.0, 0.0, 0.0, 0.0, 0.0, 0.0, 0.0, 0.0, 0.0, 0.0, 0.0, 0.0, 0.0, 0.0, 0.0, 0.0, 0.0, 0.0, 0.0, 0.0, 0.0, 0.0, 0.0, 0.0, 0.0, 0.0, 0.0, 0.0, 0.0, 0.0, 0.0, 0.0]
---
header: 
  seq: 5405
  stamp: 
    secs: 0
    nsecs:         0
  frame_id: ''
pose: 
  pose: 
    position: 
      x: 4.04921763
      y: -2.0952488
      z: -1.7155941
    orientation: 
      x: 0.00539058
      y: 0.02434138
      z: -0.7612617
      w: 0.64796531
  covariance: [0.0, 0.0, 0.0, 0.0, 0.0, 0.0, 0.0, 0.0, 0.0, 0.0, 0.0, 0.0, 0.0, 0.0, 0.0, 0.0, 0.0, 0.0, 0.0, 0.0, 0.0, 0.0, 0.0, 0.0, 0.0, 0.0, 0.0, 0.0, 0.0, 0.0, 0.0, 0.0, 0.0, 0.0, 0.0, 0.0]
---
header: 
  seq: 5406
  stamp: 
    secs: 0
    nsecs:         0
  frame_id: ''
pose: 
  pose: 
    position: 
      x: 4.04653122
      y: -2.128867
      z: -1.729944
    orientation: 
      x: 0.0048728
      y: 0.0243438
      z: -0.7583304
      w: 0.65139743
  covariance: [0.0, 0.0, 0.0, 0.0, 0.0, 0.0, 0.0, 0.0, 0.0, 0.0, 0.0, 0.0, 0.0, 0.0, 0.0, 0.0, 0.0, 0.0, 0.0, 0.0, 0.0, 0.0, 0.0, 0.0, 0.0, 0.0, 0.0, 0.0, 0.0, 0.0, 0.0, 0.0, 0.0, 0.0, 0.0, 0.0]
---
header: 
  seq: 5407
  stamp: 
    secs: 0
    nsecs:         0
  frame_id: ''
pose: 
  pose: 
    position: 
      x: 4.02850201
      y: -2.1490719
      z: -1.7352966
    orientation: 
      x: 0.00512957
      y: 0.02550886
      z: -0.7573445
      w: 0.65249692
  covariance: [0.0, 0.0, 0.0, 0.0, 0.0, 0.0, 0.0, 0.0, 0.0, 0.0, 0.0, 0.0, 0.0, 0.0, 0.0, 0.0, 0.0, 0.0, 0.0, 0.0, 0.0, 0.0, 0.0, 0.0, 0.0, 0.0, 0.0, 0.0, 0.0, 0.0, 0.0, 0.0, 0.0, 0.0, 0.0, 0.0]
---
header: 
  seq: 5408
  stamp: 
    secs: 0
    nsecs:         0
  frame_id: ''
pose: 
  pose: 
    position: 
      x: 4.03252351
      y: -2.1724089
      z: -1.7463508
    orientation: 
      x: 0.00523548
      y: 0.02542582
      z: -0.7569684
      w: 0.65293554
  covariance: [0.0, 0.0, 0.0, 0.0, 0.0, 0.0, 0.0, 0.0, 0.0, 0.0, 0.0, 0.0, 0.0, 0.0, 0.0, 0.0, 0.0, 0.0, 0.0, 0.0, 0.0, 0.0, 0.0, 0.0, 0.0, 0.0, 0.0, 0.0, 0.0, 0.0, 0.0, 0.0, 0.0, 0.0, 0.0, 0.0]
---
header: 
  seq: 5409
  stamp: 
    secs: 0
    nsecs:         0
  frame_id: ''
pose: 
  pose: 
    position: 
      x: 4.04730116
      y: -2.213645
      z: -1.7673716
    orientation: 
      x: 0.00555524
      y: 0.02492336
      z: -0.756362
      w: 0.65365464
  covariance: [0.0, 0.0, 0.0, 0.0, 0.0, 0.0, 0.0, 0.0, 0.0, 0.0, 0.0, 0.0, 0.0, 0.0, 0.0, 0.0, 0.0, 0.0, 0.0, 0.0, 0.0, 0.0, 0.0, 0.0, 0.0, 0.0, 0.0, 0.0, 0.0, 0.0, 0.0, 0.0, 0.0, 0.0, 0.0, 0.0]
---
header: 
  seq: 5410
  stamp: 
    secs: 0
    nsecs:         0
  frame_id: ''
pose: 
  pose: 
    position: 
      x: 4.04195689
      y: -2.2362435
      z: -1.7762649
    orientation: 
      x: 0.00508529
      y: 0.02484182
      z: -0.7561716
      w: 0.65388187
  covariance: [0.0, 0.0, 0.0, 0.0, 0.0, 0.0, 0.0, 0.0, 0.0, 0.0, 0.0, 0.0, 0.0, 0.0, 0.0, 0.0, 0.0, 0.0, 0.0, 0.0, 0.0, 0.0, 0.0, 0.0, 0.0, 0.0, 0.0, 0.0, 0.0, 0.0, 0.0, 0.0, 0.0, 0.0, 0.0, 0.0]
---
header: 
  seq: 5411
  stamp: 
    secs: 0
    nsecs:         0
  frame_id: ''
pose: 
  pose: 
    position: 
      x: 4.05441134
      y: -2.2788957
      z: -1.7975128
    orientation: 
      x: 0.00576366
      y: 0.02473005
      z: -0.7563738
      w: 0.65364654
  covariance: [0.0, 0.0, 0.0, 0.0, 0.0, 0.0, 0.0, 0.0, 0.0, 0.0, 0.0, 0.0, 0.0, 0.0, 0.0, 0.0, 0.0, 0.0, 0.0, 0.0, 0.0, 0.0, 0.0, 0.0, 0.0, 0.0, 0.0, 0.0, 0.0, 0.0, 0.0, 0.0, 0.0, 0.0, 0.0, 0.0]
---
header: 
  seq: 5412
  stamp: 
    secs: 0
    nsecs:         0
  frame_id: ''
pose: 
  pose: 
    position: 
      x: 4.04660121
      y: -2.3067756
      z: -1.8082323
    orientation: 
      x: 0.00535223
      y: 0.02467521
      z: -0.7560222
      w: 0.65405871
  covariance: [0.0, 0.0, 0.0, 0.0, 0.0, 0.0, 0.0, 0.0, 0.0, 0.0, 0.0, 0.0, 0.0, 0.0, 0.0, 0.0, 0.0, 0.0, 0.0, 0.0, 0.0, 0.0, 0.0, 0.0, 0.0, 0.0, 0.0, 0.0, 0.0, 0.0, 0.0, 0.0, 0.0, 0.0, 0.0, 0.0]
---
header: 
  seq: 5413
  stamp: 
    secs: 0
    nsecs:         0
  frame_id: ''
pose: 
  pose: 
    position: 
      x: 4.05129824
      y: -2.3315652
      z: -1.8201325
    orientation: 
      x: 0.00546218
      y: 0.02455252
      z: -0.7554024
      w: 0.65477817
  covariance: [0.0, 0.0, 0.0, 0.0, 0.0, 0.0, 0.0, 0.0, 0.0, 0.0, 0.0, 0.0, 0.0, 0.0, 0.0, 0.0, 0.0, 0.0, 0.0, 0.0, 0.0, 0.0, 0.0, 0.0, 0.0, 0.0, 0.0, 0.0, 0.0, 0.0, 0.0, 0.0, 0.0, 0.0, 0.0, 0.0]
---
header: 
  seq: 5414
  stamp: 
    secs: 0
    nsecs:         0
  frame_id: ''
pose: 
  pose: 
    position: 
      x: 4.05379596
      y: -2.3628043
      z: -1.834446
    orientation: 
      x: 0.00583077
      y: 0.02445233
      z: -0.7564479
      w: 0.65357063
  covariance: [0.0, 0.0, 0.0, 0.0, 0.0, 0.0, 0.0, 0.0, 0.0, 0.0, 0.0, 0.0, 0.0, 0.0, 0.0, 0.0, 0.0, 0.0, 0.0, 0.0, 0.0, 0.0, 0.0, 0.0, 0.0, 0.0, 0.0, 0.0, 0.0, 0.0, 0.0, 0.0, 0.0, 0.0, 0.0, 0.0]
---
header: 
  seq: 5415
  stamp: 
    secs: 0
    nsecs:         0
  frame_id: ''
pose: 
  pose: 
    position: 
      x: 4.05507422
      y: -2.384155
      z: -1.8441572
    orientation: 
      x: 0.00568475
      y: 0.02437574
      z: -0.7556395
      w: 0.65450921
  covariance: [0.0, 0.0, 0.0, 0.0, 0.0, 0.0, 0.0, 0.0, 0.0, 0.0, 0.0, 0.0, 0.0, 0.0, 0.0, 0.0, 0.0, 0.0, 0.0, 0.0, 0.0, 0.0, 0.0, 0.0, 0.0, 0.0, 0.0, 0.0, 0.0, 0.0, 0.0, 0.0, 0.0, 0.0, 0.0, 0.0]
---
header: 
  seq: 5416
  stamp: 
    secs: 0
    nsecs:         0
  frame_id: ''
pose: 
  pose: 
    position: 
      x: 4.05929642
      y: -2.415983
      z: -1.8590008
    orientation: 
      x: 0.00594836
      y: 0.02424416
      z: -0.7562192
      w: 0.65384199
  covariance: [0.0, 0.0, 0.0, 0.0, 0.0, 0.0, 0.0, 0.0, 0.0, 0.0, 0.0, 0.0, 0.0, 0.0, 0.0, 0.0, 0.0, 0.0, 0.0, 0.0, 0.0, 0.0, 0.0, 0.0, 0.0, 0.0, 0.0, 0.0, 0.0, 0.0, 0.0, 0.0, 0.0, 0.0, 0.0, 0.0]
---
header: 
  seq: 5417
  stamp: 
    secs: 0
    nsecs:         0
  frame_id: ''
pose: 
  pose: 
    position: 
      x: 4.05898862
      y: -2.4359102
      z: -1.8677466
    orientation: 
      x: 0.00588118
      y: 0.0241063
      z: -0.756674
      w: 0.6533213
  covariance: [0.0, 0.0, 0.0, 0.0, 0.0, 0.0, 0.0, 0.0, 0.0, 0.0, 0.0, 0.0, 0.0, 0.0, 0.0, 0.0, 0.0, 0.0, 0.0, 0.0, 0.0, 0.0, 0.0, 0.0, 0.0, 0.0, 0.0, 0.0, 0.0, 0.0, 0.0, 0.0, 0.0, 0.0, 0.0, 0.0]
---
header: 
  seq: 5418
  stamp: 
    secs: 0
    nsecs:         0
  frame_id: ''
pose: 
  pose: 
    position: 
      x: 4.05457264
      y: -2.4620576
      z: -1.8784227
    orientation: 
      x: 0.00583153
      y: 0.02404453
      z: -0.7578289
      w: 0.65198403
  covariance: [0.0, 0.0, 0.0, 0.0, 0.0, 0.0, 0.0, 0.0, 0.0, 0.0, 0.0, 0.0, 0.0, 0.0, 0.0, 0.0, 0.0, 0.0, 0.0, 0.0, 0.0, 0.0, 0.0, 0.0, 0.0, 0.0, 0.0, 0.0, 0.0, 0.0, 0.0, 0.0, 0.0, 0.0, 0.0, 0.0]
---
header: 
  seq: 5419
  stamp: 
    secs: 0
    nsecs:         0
  frame_id: ''
pose: 
  pose: 
    position: 
      x: 4.06469811
      y: -2.4872218
      z: -1.8915349
    orientation: 
      x: 0.00624407
      y: 0.02391509
      z: -0.7575388
      w: 0.65232199
  covariance: [0.0, 0.0, 0.0, 0.0, 0.0, 0.0, 0.0, 0.0, 0.0, 0.0, 0.0, 0.0, 0.0, 0.0, 0.0, 0.0, 0.0, 0.0, 0.0, 0.0, 0.0, 0.0, 0.0, 0.0, 0.0, 0.0, 0.0, 0.0, 0.0, 0.0, 0.0, 0.0, 0.0, 0.0, 0.0, 0.0]
---
header: 
  seq: 5420
  stamp: 
    secs: 0
    nsecs:         0
  frame_id: ''
pose: 
  pose: 
    position: 
      x: 4.06474745
      y: -2.51578
      z: -1.9041722
    orientation: 
      x: 0.00614959
      y: 0.02376589
      z: -0.7575725
      w: 0.65228915
  covariance: [0.0, 0.0, 0.0, 0.0, 0.0, 0.0, 0.0, 0.0, 0.0, 0.0, 0.0, 0.0, 0.0, 0.0, 0.0, 0.0, 0.0, 0.0, 0.0, 0.0, 0.0, 0.0, 0.0, 0.0, 0.0, 0.0, 0.0, 0.0, 0.0, 0.0, 0.0, 0.0, 0.0, 0.0, 0.0, 0.0]
---
header: 
  seq: 5421
  stamp: 
    secs: 0
    nsecs:         0
  frame_id: ''
pose: 
  pose: 
    position: 
      x: 4.07483916
      y: -2.5512142
      z: -1.9217469
    orientation: 
      x: 0.00668064
      y: 0.02353504
      z: -0.7583076
      w: 0.65143759
  covariance: [0.0, 0.0, 0.0, 0.0, 0.0, 0.0, 0.0, 0.0, 0.0, 0.0, 0.0, 0.0, 0.0, 0.0, 0.0, 0.0, 0.0, 0.0, 0.0, 0.0, 0.0, 0.0, 0.0, 0.0, 0.0, 0.0, 0.0, 0.0, 0.0, 0.0, 0.0, 0.0, 0.0, 0.0, 0.0, 0.0]
---
header: 
  seq: 5422
  stamp: 
    secs: 0
    nsecs:         0
  frame_id: ''
pose: 
  pose: 
    position: 
      x: 4.07329503
      y: -2.5689239
      z: -1.9292936
    orientation: 
      x: 0.0064251
      y: 0.02346075
      z: -0.7579074
      w: 0.65190843
  covariance: [0.0, 0.0, 0.0, 0.0, 0.0, 0.0, 0.0, 0.0, 0.0, 0.0, 0.0, 0.0, 0.0, 0.0, 0.0, 0.0, 0.0, 0.0, 0.0, 0.0, 0.0, 0.0, 0.0, 0.0, 0.0, 0.0, 0.0, 0.0, 0.0, 0.0, 0.0, 0.0, 0.0, 0.0, 0.0, 0.0]
---
header: 
  seq: 5423
  stamp: 
    secs: 0
    nsecs:         0
  frame_id: ''
pose: 
  pose: 
    position: 
      x: 4.08488826
      y: -2.6042255
      z: -1.9470383
    orientation: 
      x: 0.00520979
      y: 0.02340044
      z: -0.7513795
      w: 0.6594346
  covariance: [0.0, 0.0, 0.0, 0.0, 0.0, 0.0, 0.0, 0.0, 0.0, 0.0, 0.0, 0.0, 0.0, 0.0, 0.0, 0.0, 0.0, 0.0, 0.0, 0.0, 0.0, 0.0, 0.0, 0.0, 0.0, 0.0, 0.0, 0.0, 0.0, 0.0, 0.0, 0.0, 0.0, 0.0, 0.0, 0.0]
---
header: 
  seq: 5424
  stamp: 
    secs: 0
    nsecs:         0
  frame_id: ''
pose: 
  pose: 
    position: 
      x: 4.09993739
      y: -2.6281906
      z: -1.957368
    orientation: 
      x: -0.0153416
      y: 0.02042714
      z: -0.5627275
      w: 0.82624756
  covariance: [0.0, 0.0, 0.0, 0.0, 0.0, 0.0, 0.0, 0.0, 0.0, 0.0, 0.0, 0.0, 0.0, 0.0, 0.0, 0.0, 0.0, 0.0, 0.0, 0.0, 0.0, 0.0, 0.0, 0.0, 0.0, 0.0, 0.0, 0.0, 0.0, 0.0, 0.0, 0.0, 0.0, 0.0, 0.0, 0.0]
---
header: 
  seq: 5425
  stamp: 
    secs: 0
    nsecs:         0
  frame_id: ''
pose: 
  pose: 
    position: 
      x: 4.11008345
      y: -2.6231589
      z: -1.9476847
    orientation: 
      x: -0.0213303
      y: -0.0145151
      z: -0.1136772
      w: 0.99318266
  covariance: [0.0, 0.0, 0.0, 0.0, 0.0, 0.0, 0.0, 0.0, 0.0, 0.0, 0.0, 0.0, 0.0, 0.0, 0.0, 0.0, 0.0, 0.0, 0.0, 0.0, 0.0, 0.0, 0.0, 0.0, 0.0, 0.0, 0.0, 0.0, 0.0, 0.0, 0.0, 0.0, 0.0, 0.0, 0.0, 0.0]
---
header: 
  seq: 5426
  stamp: 
    secs: 0
    nsecs:         0
  frame_id: ''
pose: 
  pose: 
    position: 
      x: 4.22532831
      y: -2.6154845
      z: -1.9574486
    orientation: 
      x: 0.02027355
      y: -0.0145652
      z: 0.55015779
      w: 0.8346875
  covariance: [0.0, 0.0, 0.0, 0.0, 0.0, 0.0, 0.0, 0.0, 0.0, 0.0, 0.0, 0.0, 0.0, 0.0, 0.0, 0.0, 0.0, 0.0, 0.0, 0.0, 0.0, 0.0, 0.0, 0.0, 0.0, 0.0, 0.0, 0.0, 0.0, 0.0, 0.0, 0.0, 0.0, 0.0, 0.0, 0.0]
---
header: 
  seq: 5427
  stamp: 
    secs: 0
    nsecs:         0
  frame_id: ''
pose: 
  pose: 
    position: 
      x: 4.20355698
      y: -2.581768
      z: -1.9390596
    orientation: 
      x: 0.02421294
      y: -0.0042499
      z: 0.66879838
      w: 0.74303727
  covariance: [0.0, 0.0, 0.0, 0.0, 0.0, 0.0, 0.0, 0.0, 0.0, 0.0, 0.0, 0.0, 0.0, 0.0, 0.0, 0.0, 0.0, 0.0, 0.0, 0.0, 0.0, 0.0, 0.0, 0.0, 0.0, 0.0, 0.0, 0.0, 0.0, 0.0, 0.0, 0.0, 0.0, 0.0, 0.0, 0.0]
---
header: 
  seq: 5428
  stamp: 
    secs: 0
    nsecs:         0
  frame_id: ''
pose: 
  pose: 
    position: 
      x: 4.1350717
      y: -2.5196423
      z: -1.9015311
    orientation: 
      x: 0.02240583
      y: 0.01004004
      z: 0.79654298
      w: 0.60408315
  covariance: [0.0, 0.0, 0.0, 0.0, 0.0, 0.0, 0.0, 0.0, 0.0, 0.0, 0.0, 0.0, 0.0, 0.0, 0.0, 0.0, 0.0, 0.0, 0.0, 0.0, 0.0, 0.0, 0.0, 0.0, 0.0, 0.0, 0.0, 0.0, 0.0, 0.0, 0.0, 0.0, 0.0, 0.0, 0.0, 0.0]
---
header: 
  seq: 5429
  stamp: 
    secs: 0
    nsecs:         0
  frame_id: ''
pose: 
  pose: 
    position: 
      x: 4.12871242
      y: -2.504749
      z: -1.8951441
    orientation: 
      x: 0.02350126
      y: 0.00858557
      z: 0.78153172
      w: 0.62336357
  covariance: [0.0, 0.0, 0.0, 0.0, 0.0, 0.0, 0.0, 0.0, 0.0, 0.0, 0.0, 0.0, 0.0, 0.0, 0.0, 0.0, 0.0, 0.0, 0.0, 0.0, 0.0, 0.0, 0.0, 0.0, 0.0, 0.0, 0.0, 0.0, 0.0, 0.0, 0.0, 0.0, 0.0, 0.0, 0.0, 0.0]
---
header: 
  seq: 5430
  stamp: 
    secs: 0
    nsecs:         0
  frame_id: ''
pose: 
  pose: 
    position: 
      x: 4.14997619
      y: -2.5087024
      z: -1.901406
    orientation: 
      x: 0.0243573
      y: 0.00429461
      z: 0.74854956
      w: 0.6626174
  covariance: [0.0, 0.0, 0.0, 0.0, 0.0, 0.0, 0.0, 0.0, 0.0, 0.0, 0.0, 0.0, 0.0, 0.0, 0.0, 0.0, 0.0, 0.0, 0.0, 0.0, 0.0, 0.0, 0.0, 0.0, 0.0, 0.0, 0.0, 0.0, 0.0, 0.0, 0.0, 0.0, 0.0, 0.0, 0.0, 0.0]
---
header: 
  seq: 5431
  stamp: 
    secs: 0
    nsecs:         0
  frame_id: ''
pose: 
  pose: 
    position: 
      x: 4.1448684
      y: -2.4820971
      z: -1.8885979
    orientation: 
      x: 0.02453402
      y: -0.0056095
      z: 0.65180658
      w: 0.75796753
  covariance: [0.0, 0.0, 0.0, 0.0, 0.0, 0.0, 0.0, 0.0, 0.0, 0.0, 0.0, 0.0, 0.0, 0.0, 0.0, 0.0, 0.0, 0.0, 0.0, 0.0, 0.0, 0.0, 0.0, 0.0, 0.0, 0.0, 0.0, 0.0, 0.0, 0.0, 0.0, 0.0, 0.0, 0.0, 0.0, 0.0]
---
header: 
  seq: 5432
  stamp: 
    secs: 0
    nsecs:         0
  frame_id: ''
pose: 
  pose: 
    position: 
      x: 4.15837015
      y: -2.4721026
      z: -1.8860391
    orientation: 
      x: 0.02239055
      y: -0.0123313
      z: 0.58267806
      w: 0.81230097
  covariance: [0.0, 0.0, 0.0, 0.0, 0.0, 0.0, 0.0, 0.0, 0.0, 0.0, 0.0, 0.0, 0.0, 0.0, 0.0, 0.0, 0.0, 0.0, 0.0, 0.0, 0.0, 0.0, 0.0, 0.0, 0.0, 0.0, 0.0, 0.0, 0.0, 0.0, 0.0, 0.0, 0.0, 0.0, 0.0, 0.0]
---
header: 
  seq: 5433
  stamp: 
    secs: 0
    nsecs:         0
  frame_id: ''
pose: 
  pose: 
    position: 
      x: 4.15343016
      y: -2.4423708
      z: -1.8700438
    orientation: 
      x: 0.01756322
      y: -0.0189786
      z: 0.48954214
      w: 0.87159613
  covariance: [0.0, 0.0, 0.0, 0.0, 0.0, 0.0, 0.0, 0.0, 0.0, 0.0, 0.0, 0.0, 0.0, 0.0, 0.0, 0.0, 0.0, 0.0, 0.0, 0.0, 0.0, 0.0, 0.0, 0.0, 0.0, 0.0, 0.0, 0.0, 0.0, 0.0, 0.0, 0.0, 0.0, 0.0, 0.0, 0.0]
---
header: 
  seq: 5434
  stamp: 
    secs: 0
    nsecs:         0
  frame_id: ''
pose: 
  pose: 
    position: 
      x: 4.15855446
      y: -2.4291251
      z: -1.8636493
    orientation: 
      x: 0.01416068
      y: -0.0218333
      z: 0.43696551
      w: 0.89910173
  covariance: [0.0, 0.0, 0.0, 0.0, 0.0, 0.0, 0.0, 0.0, 0.0, 0.0, 0.0, 0.0, 0.0, 0.0, 0.0, 0.0, 0.0, 0.0, 0.0, 0.0, 0.0, 0.0, 0.0, 0.0, 0.0, 0.0, 0.0, 0.0, 0.0, 0.0, 0.0, 0.0, 0.0, 0.0, 0.0, 0.0]
---
header: 
  seq: 5435
  stamp: 
    secs: 0
    nsecs:         0
  frame_id: ''
pose: 
  pose: 
    position: 
      x: 4.18112594
      y: -2.4154787
      z: -1.8589713
    orientation: 
      x: 0.00992981
      y: -0.0240933
      z: 0.38506556
      w: 0.92252123
  covariance: [0.0, 0.0, 0.0, 0.0, 0.0, 0.0, 0.0, 0.0, 0.0, 0.0, 0.0, 0.0, 0.0, 0.0, 0.0, 0.0, 0.0, 0.0, 0.0, 0.0, 0.0, 0.0, 0.0, 0.0, 0.0, 0.0, 0.0, 0.0, 0.0, 0.0, 0.0, 0.0, 0.0, 0.0, 0.0, 0.0]
---
header: 
  seq: 5436
  stamp: 
    secs: 0
    nsecs:         0
  frame_id: ''
pose: 
  pose: 
    position: 
      x: 4.18854149
      y: -2.3864593
      z: -1.8437108
    orientation: 
      x: 0.00925248
      y: -0.0237726
      z: 0.37590473
      w: 0.92630712
  covariance: [0.0, 0.0, 0.0, 0.0, 0.0, 0.0, 0.0, 0.0, 0.0, 0.0, 0.0, 0.0, 0.0, 0.0, 0.0, 0.0, 0.0, 0.0, 0.0, 0.0, 0.0, 0.0, 0.0, 0.0, 0.0, 0.0, 0.0, 0.0, 0.0, 0.0, 0.0, 0.0, 0.0, 0.0, 0.0, 0.0]
---
header: 
  seq: 5437
  stamp: 
    secs: 0
    nsecs:         0
  frame_id: ''
pose: 
  pose: 
    position: 
      x: 4.20151933
      y: -2.3700413
      z: -1.8362286
    orientation: 
      x: 0.00965242
      y: -0.0242803
      z: 0.37547487
      w: 0.9264642
  covariance: [0.0, 0.0, 0.0, 0.0, 0.0, 0.0, 0.0, 0.0, 0.0, 0.0, 0.0, 0.0, 0.0, 0.0, 0.0, 0.0, 0.0, 0.0, 0.0, 0.0, 0.0, 0.0, 0.0, 0.0, 0.0, 0.0, 0.0, 0.0, 0.0, 0.0, 0.0, 0.0, 0.0, 0.0, 0.0, 0.0]
---
header: 
  seq: 5438
  stamp: 
    secs: 0
    nsecs:         0
  frame_id: ''
pose: 
  pose: 
    position: 
      x: 4.22024418
      y: -2.3463797
      z: -1.8255564
    orientation: 
      x: 0.01075463
      y: -0.0237692
      z: 0.38869074
      w: 0.92099883
  covariance: [0.0, 0.0, 0.0, 0.0, 0.0, 0.0, 0.0, 0.0, 0.0, 0.0, 0.0, 0.0, 0.0, 0.0, 0.0, 0.0, 0.0, 0.0, 0.0, 0.0, 0.0, 0.0, 0.0, 0.0, 0.0, 0.0, 0.0, 0.0, 0.0, 0.0, 0.0, 0.0, 0.0, 0.0, 0.0, 0.0]
---
header: 
  seq: 5439
  stamp: 
    secs: 0
    nsecs:         0
  frame_id: ''
pose: 
  pose: 
    position: 
      x: 4.22642897
      y: -2.325359
      z: -1.8148935
    orientation: 
      x: 0.01187729
      y: -0.0233033
      z: 0.40029036
      w: 0.91601501
  covariance: [0.0, 0.0, 0.0, 0.0, 0.0, 0.0, 0.0, 0.0, 0.0, 0.0, 0.0, 0.0, 0.0, 0.0, 0.0, 0.0, 0.0, 0.0, 0.0, 0.0, 0.0, 0.0, 0.0, 0.0, 0.0, 0.0, 0.0, 0.0, 0.0, 0.0, 0.0, 0.0, 0.0, 0.0, 0.0, 0.0]
---
header: 
  seq: 5440
  stamp: 
    secs: 0
    nsecs:         0
  frame_id: ''
pose: 
  pose: 
    position: 
      x: 4.24553786
      y: -2.2995993
      z: -1.8035203
    orientation: 
      x: 0.01313142
      y: -0.0225932
      z: 0.41709477
      w: 0.90848723
  covariance: [0.0, 0.0, 0.0, 0.0, 0.0, 0.0, 0.0, 0.0, 0.0, 0.0, 0.0, 0.0, 0.0, 0.0, 0.0, 0.0, 0.0, 0.0, 0.0, 0.0, 0.0, 0.0, 0.0, 0.0, 0.0, 0.0, 0.0, 0.0, 0.0, 0.0, 0.0, 0.0, 0.0, 0.0, 0.0, 0.0]
---
header: 
  seq: 5441
  stamp: 
    secs: 0
    nsecs:         0
  frame_id: ''
pose: 
  pose: 
    position: 
      x: 4.25909054
      y: -2.2699575
      z: -1.789496
    orientation: 
      x: 0.01434534
      y: -0.0219958
      z: 0.43076523
      w: 0.90208187
  covariance: [0.0, 0.0, 0.0, 0.0, 0.0, 0.0, 0.0, 0.0, 0.0, 0.0, 0.0, 0.0, 0.0, 0.0, 0.0, 0.0, 0.0, 0.0, 0.0, 0.0, 0.0, 0.0, 0.0, 0.0, 0.0, 0.0, 0.0, 0.0, 0.0, 0.0, 0.0, 0.0, 0.0, 0.0, 0.0, 0.0]
---
header: 
  seq: 5442
  stamp: 
    secs: 0
    nsecs:         0
  frame_id: ''
pose: 
  pose: 
    position: 
      x: 4.26923556
      y: -2.2500255
      z: -1.7802724
    orientation: 
      x: 0.01488588
      y: -0.0216776
      z: 0.437121
      w: 0.89901819
  covariance: [0.0, 0.0, 0.0, 0.0, 0.0, 0.0, 0.0, 0.0, 0.0, 0.0, 0.0, 0.0, 0.0, 0.0, 0.0, 0.0, 0.0, 0.0, 0.0, 0.0, 0.0, 0.0, 0.0, 0.0, 0.0, 0.0, 0.0, 0.0, 0.0, 0.0, 0.0, 0.0, 0.0, 0.0, 0.0, 0.0]
---
header: 
  seq: 5443
  stamp: 
    secs: 0
    nsecs:         0
  frame_id: ''
pose: 
  pose: 
    position: 
      x: 4.28129182
      y: -2.2184761
      z: -1.7651566
    orientation: 
      x: 0.01553149
      y: -0.0212112
      z: 0.44406653
      w: 0.89560804
  covariance: [0.0, 0.0, 0.0, 0.0, 0.0, 0.0, 0.0, 0.0, 0.0, 0.0, 0.0, 0.0, 0.0, 0.0, 0.0, 0.0, 0.0, 0.0, 0.0, 0.0, 0.0, 0.0, 0.0, 0.0, 0.0, 0.0, 0.0, 0.0, 0.0, 0.0, 0.0, 0.0, 0.0, 0.0, 0.0, 0.0]
---
header: 
  seq: 5444
  stamp: 
    secs: 0
    nsecs:         0
  frame_id: ''
pose: 
  pose: 
    position: 
      x: 4.29888539
      y: -2.2011195
      z: -1.7583716
    orientation: 
      x: 0.01563684
      y: -0.0211774
      z: 0.44581509
      w: 0.89473789
  covariance: [0.0, 0.0, 0.0, 0.0, 0.0, 0.0, 0.0, 0.0, 0.0, 0.0, 0.0, 0.0, 0.0, 0.0, 0.0, 0.0, 0.0, 0.0, 0.0, 0.0, 0.0, 0.0, 0.0, 0.0, 0.0, 0.0, 0.0, 0.0, 0.0, 0.0, 0.0, 0.0, 0.0, 0.0, 0.0, 0.0]
---
header: 
  seq: 5445
  stamp: 
    secs: 0
    nsecs:         0
  frame_id: ''
pose: 
  pose: 
    position: 
      x: 4.31599146
      y: -2.1698583
      z: -1.744118
    orientation: 
      x: 0.01581506
      y: -0.0210151
      z: 0.44648228
      w: 0.89440584
  covariance: [0.0, 0.0, 0.0, 0.0, 0.0, 0.0, 0.0, 0.0, 0.0, 0.0, 0.0, 0.0, 0.0, 0.0, 0.0, 0.0, 0.0, 0.0, 0.0, 0.0, 0.0, 0.0, 0.0, 0.0, 0.0, 0.0, 0.0, 0.0, 0.0, 0.0, 0.0, 0.0, 0.0, 0.0, 0.0, 0.0]
---
header: 
  seq: 5446
  stamp: 
    secs: 0
    nsecs:         0
  frame_id: ''
pose: 
  pose: 
    position: 
      x: 4.33210437
      y: -2.148774
      z: -1.7352036
    orientation: 
      x: 0.01575799
      y: -0.0205898
      z: 0.4487044
      w: 0.89330403
  covariance: [0.0, 0.0, 0.0, 0.0, 0.0, 0.0, 0.0, 0.0, 0.0, 0.0, 0.0, 0.0, 0.0, 0.0, 0.0, 0.0, 0.0, 0.0, 0.0, 0.0, 0.0, 0.0, 0.0, 0.0, 0.0, 0.0, 0.0, 0.0, 0.0, 0.0, 0.0, 0.0, 0.0, 0.0, 0.0, 0.0]
---
header: 
  seq: 5447
  stamp: 
    secs: 0
    nsecs:         0
  frame_id: ''
pose: 
  pose: 
    position: 
      x: 4.34585254
      y: -2.1128109
      z: -1.7181269
    orientation: 
      x: 0.01606493
      y: -0.020925
      z: 0.44731154
      w: 0.89398906
  covariance: [0.0, 0.0, 0.0, 0.0, 0.0, 0.0, 0.0, 0.0, 0.0, 0.0, 0.0, 0.0, 0.0, 0.0, 0.0, 0.0, 0.0, 0.0, 0.0, 0.0, 0.0, 0.0, 0.0, 0.0, 0.0, 0.0, 0.0, 0.0, 0.0, 0.0, 0.0, 0.0, 0.0, 0.0, 0.0, 0.0]
---
header: 
  seq: 5448
  stamp: 
    secs: 0
    nsecs:         0
  frame_id: ''
pose: 
  pose: 
    position: 
      x: 4.35691469
      y: -2.073715
      z: -1.6990394
    orientation: 
      x: 0.01629891
      y: -0.0208788
      z: 0.44705995
      w: 0.89411174
  covariance: [0.0, 0.0, 0.0, 0.0, 0.0, 0.0, 0.0, 0.0, 0.0, 0.0, 0.0, 0.0, 0.0, 0.0, 0.0, 0.0, 0.0, 0.0, 0.0, 0.0, 0.0, 0.0, 0.0, 0.0, 0.0, 0.0, 0.0, 0.0, 0.0, 0.0, 0.0, 0.0, 0.0, 0.0, 0.0, 0.0]
---
header: 
  seq: 5449
  stamp: 
    secs: 0
    nsecs:         0
  frame_id: ''
pose: 
  pose: 
    position: 
      x: 4.36674708
      y: -2.0483011
      z: -1.6869637
    orientation: 
      x: 0.01646424
      y: -0.0206863
      z: 0.44775187
      w: 0.89376689
  covariance: [0.0, 0.0, 0.0, 0.0, 0.0, 0.0, 0.0, 0.0, 0.0, 0.0, 0.0, 0.0, 0.0, 0.0, 0.0, 0.0, 0.0, 0.0, 0.0, 0.0, 0.0, 0.0, 0.0, 0.0, 0.0, 0.0, 0.0, 0.0, 0.0, 0.0, 0.0, 0.0, 0.0, 0.0, 0.0, 0.0]
---
header: 
  seq: 5450
  stamp: 
    secs: 0
    nsecs:         0
  frame_id: ''
pose: 
  pose: 
    position: 
      x: 4.40041097
      y: -2.0166664
      z: -1.6749003
    orientation: 
      x: 0.01628814
      y: -0.0206715
      z: 0.44817794
      w: 0.89355689
  covariance: [0.0, 0.0, 0.0, 0.0, 0.0, 0.0, 0.0, 0.0, 0.0, 0.0, 0.0, 0.0, 0.0, 0.0, 0.0, 0.0, 0.0, 0.0, 0.0, 0.0, 0.0, 0.0, 0.0, 0.0, 0.0, 0.0, 0.0, 0.0, 0.0, 0.0, 0.0, 0.0, 0.0, 0.0, 0.0, 0.0]
---
header: 
  seq: 5451
  stamp: 
    secs: 0
    nsecs:         0
  frame_id: ''
pose: 
  pose: 
    position: 
      x: 4.41013201
      y: -1.9871235
      z: -1.6605944
    orientation: 
      x: 0.01651845
      y: -0.0204637
      z: 0.44902289
      w: 0.89313314
  covariance: [0.0, 0.0, 0.0, 0.0, 0.0, 0.0, 0.0, 0.0, 0.0, 0.0, 0.0, 0.0, 0.0, 0.0, 0.0, 0.0, 0.0, 0.0, 0.0, 0.0, 0.0, 0.0, 0.0, 0.0, 0.0, 0.0, 0.0, 0.0, 0.0, 0.0, 0.0, 0.0, 0.0, 0.0, 0.0, 0.0]
---
header: 
  seq: 5452
  stamp: 
    secs: 0
    nsecs:         0
  frame_id: ''
pose: 
  pose: 
    position: 
      x: 4.43542034
      y: -1.9449303
      z: -1.6417766
    orientation: 
      x: 0.01654102
      y: -0.0206246
      z: 0.44732251
      w: 0.89398187
  covariance: [0.0, 0.0, 0.0, 0.0, 0.0, 0.0, 0.0, 0.0, 0.0, 0.0, 0.0, 0.0, 0.0, 0.0, 0.0, 0.0, 0.0, 0.0, 0.0, 0.0, 0.0, 0.0, 0.0, 0.0, 0.0, 0.0, 0.0, 0.0, 0.0, 0.0, 0.0, 0.0, 0.0, 0.0, 0.0, 0.0]
---
header: 
  seq: 5453
  stamp: 
    secs: 0
    nsecs:         0
  frame_id: ''
pose: 
  pose: 
    position: 
      x: 4.4499328
      y: -1.9168181
      z: -1.6289025
    orientation: 
      x: 0.01669308
      y: -0.0207367
      z: 0.44666017
      w: 0.89430756
  covariance: [0.0, 0.0, 0.0, 0.0, 0.0, 0.0, 0.0, 0.0, 0.0, 0.0, 0.0, 0.0, 0.0, 0.0, 0.0, 0.0, 0.0, 0.0, 0.0, 0.0, 0.0, 0.0, 0.0, 0.0, 0.0, 0.0, 0.0, 0.0, 0.0, 0.0, 0.0, 0.0, 0.0, 0.0, 0.0, 0.0]
---
header: 
  seq: 5454
  stamp: 
    secs: 0
    nsecs:         0
  frame_id: ''
pose: 
  pose: 
    position: 
      x: 4.47300476
      y: -1.8721112
      z: -1.6085625
    orientation: 
      x: 0.01668956
      y: -0.0205235
      z: 0.44675027
      w: 0.89426753
  covariance: [0.0, 0.0, 0.0, 0.0, 0.0, 0.0, 0.0, 0.0, 0.0, 0.0, 0.0, 0.0, 0.0, 0.0, 0.0, 0.0, 0.0, 0.0, 0.0, 0.0, 0.0, 0.0, 0.0, 0.0, 0.0, 0.0, 0.0, 0.0, 0.0, 0.0, 0.0, 0.0, 0.0, 0.0, 0.0, 0.0]
---
header: 
  seq: 5455
  stamp: 
    secs: 0
    nsecs:         0
  frame_id: ''
pose: 
  pose: 
    position: 
      x: 4.50222774
      y: -1.8276076
      z: -1.5890308
    orientation: 
      x: 0.01680606
      y: -0.0204483
      z: 0.44696568
      w: 0.89415943
  covariance: [0.0, 0.0, 0.0, 0.0, 0.0, 0.0, 0.0, 0.0, 0.0, 0.0, 0.0, 0.0, 0.0, 0.0, 0.0, 0.0, 0.0, 0.0, 0.0, 0.0, 0.0, 0.0, 0.0, 0.0, 0.0, 0.0, 0.0, 0.0, 0.0, 0.0, 0.0, 0.0, 0.0, 0.0, 0.0, 0.0]
---
header: 
  seq: 5456
  stamp: 
    secs: 0
    nsecs:         0
  frame_id: ''
pose: 
  pose: 
    position: 
      x: 4.51918364
      y: -1.7946308
      z: -1.5738749
    orientation: 
      x: 0.01682995
      y: -0.0206353
      z: 0.44555375
      w: 0.89485908
  covariance: [0.0, 0.0, 0.0, 0.0, 0.0, 0.0, 0.0, 0.0, 0.0, 0.0, 0.0, 0.0, 0.0, 0.0, 0.0, 0.0, 0.0, 0.0, 0.0, 0.0, 0.0, 0.0, 0.0, 0.0, 0.0, 0.0, 0.0, 0.0, 0.0, 0.0, 0.0, 0.0, 0.0, 0.0, 0.0, 0.0]
---
header: 
  seq: 5457
  stamp: 
    secs: 0
    nsecs:         0
  frame_id: ''
pose: 
  pose: 
    position: 
      x: 4.56279153
      y: -1.7461954
      z: -1.5543056
    orientation: 
      x: 0.01669599
      y: -0.0206702
      z: 0.44552339
      w: 0.8948759
  covariance: [0.0, 0.0, 0.0, 0.0, 0.0, 0.0, 0.0, 0.0, 0.0, 0.0, 0.0, 0.0, 0.0, 0.0, 0.0, 0.0, 0.0, 0.0, 0.0, 0.0, 0.0, 0.0, 0.0, 0.0, 0.0, 0.0, 0.0, 0.0, 0.0, 0.0, 0.0, 0.0, 0.0, 0.0, 0.0, 0.0]
---
header: 
  seq: 5458
  stamp: 
    secs: 0
    nsecs:         0
  frame_id: ''
pose: 
  pose: 
    position: 
      x: 4.56738324
      y: -1.7022707
      z: -1.5316992
    orientation: 
      x: 0.01717479
      y: -0.0206319
      z: 0.4453231
      w: 0.89496741
  covariance: [0.0, 0.0, 0.0, 0.0, 0.0, 0.0, 0.0, 0.0, 0.0, 0.0, 0.0, 0.0, 0.0, 0.0, 0.0, 0.0, 0.0, 0.0, 0.0, 0.0, 0.0, 0.0, 0.0, 0.0, 0.0, 0.0, 0.0, 0.0, 0.0, 0.0, 0.0, 0.0, 0.0, 0.0, 0.0, 0.0]
---
header: 
  seq: 5459
  stamp: 
    secs: 0
    nsecs:         0
  frame_id: ''
pose: 
  pose: 
    position: 
      x: 4.60318979
      y: -1.6502589
      z: -1.5090615
    orientation: 
      x: 0.01768775
      y: -0.01959
      z: 0.45295989
      w: 0.89114011
  covariance: [0.0, 0.0, 0.0, 0.0, 0.0, 0.0, 0.0, 0.0, 0.0, 0.0, 0.0, 0.0, 0.0, 0.0, 0.0, 0.0, 0.0, 0.0, 0.0, 0.0, 0.0, 0.0, 0.0, 0.0, 0.0, 0.0, 0.0, 0.0, 0.0, 0.0, 0.0, 0.0, 0.0, 0.0, 0.0, 0.0]
---
header: 
  seq: 5460
  stamp: 
    secs: 0
    nsecs:         0
  frame_id: ''
pose: 
  pose: 
    position: 
      x: 4.58433973
      y: -1.5847107
      z: -1.4748378
    orientation: 
      x: 0.02617365
      y: -0.0034811
      z: 0.63095923
      w: 0.77536653
  covariance: [0.0, 0.0, 0.0, 0.0, 0.0, 0.0, 0.0, 0.0, 0.0, 0.0, 0.0, 0.0, 0.0, 0.0, 0.0, 0.0, 0.0, 0.0, 0.0, 0.0, 0.0, 0.0, 0.0, 0.0, 0.0, 0.0, 0.0, 0.0, 0.0, 0.0, 0.0, 0.0, 0.0, 0.0, 0.0, 0.0]
---
header: 
  seq: 5461
  stamp: 
    secs: 0
    nsecs:         0
  frame_id: ''
pose: 
  pose: 
    position: 
      x: 4.54414565
      y: -1.533963
      z: -1.4472077
    orientation: 
      x: 0.02459607
      y: 0.0098903
      z: 0.7439224
      w: 0.66773997
  covariance: [0.0, 0.0, 0.0, 0.0, 0.0, 0.0, 0.0, 0.0, 0.0, 0.0, 0.0, 0.0, 0.0, 0.0, 0.0, 0.0, 0.0, 0.0, 0.0, 0.0, 0.0, 0.0, 0.0, 0.0, 0.0, 0.0, 0.0, 0.0, 0.0, 0.0, 0.0, 0.0, 0.0, 0.0, 0.0, 0.0]
---
header: 
  seq: 5462
  stamp: 
    secs: 0
    nsecs:         0
  frame_id: ''
pose: 
  pose: 
    position: 
      x: 4.45165788
      y: -1.4746291
      z: -1.4104033
    orientation: 
      x: 0.01462541
      y: 0.02334117
      z: 0.86256799
      w: 0.50519079
  covariance: [0.0, 0.0, 0.0, 0.0, 0.0, 0.0, 0.0, 0.0, 0.0, 0.0, 0.0, 0.0, 0.0, 0.0, 0.0, 0.0, 0.0, 0.0, 0.0, 0.0, 0.0, 0.0, 0.0, 0.0, 0.0, 0.0, 0.0, 0.0, 0.0, 0.0, 0.0, 0.0, 0.0, 0.0, 0.0, 0.0]
---
header: 
  seq: 5463
  stamp: 
    secs: 0
    nsecs:         0
  frame_id: ''
pose: 
  pose: 
    position: 
      x: 4.41817688
      y: -1.4550383
      z: -1.3998733
    orientation: 
      x: 0.00729187
      y: 0.02769703
      z: 0.90754498
      w: 0.4189771
  covariance: [0.0, 0.0, 0.0, 0.0, 0.0, 0.0, 0.0, 0.0, 0.0, 0.0, 0.0, 0.0, 0.0, 0.0, 0.0, 0.0, 0.0, 0.0, 0.0, 0.0, 0.0, 0.0, 0.0, 0.0, 0.0, 0.0, 0.0, 0.0, 0.0, 0.0, 0.0, 0.0, 0.0, 0.0, 0.0, 0.0]
---
header: 
  seq: 5464
  stamp: 
    secs: 0
    nsecs:         0
  frame_id: ''
pose: 
  pose: 
    position: 
      x: 4.36569416
      y: -1.4316783
      z: -1.3871343
    orientation: 
      x: -0.0024175
      y: 0.02928644
      z: 0.94821677
      w: 0.31626161
  covariance: [0.0, 0.0, 0.0, 0.0, 0.0, 0.0, 0.0, 0.0, 0.0, 0.0, 0.0, 0.0, 0.0, 0.0, 0.0, 0.0, 0.0, 0.0, 0.0, 0.0, 0.0, 0.0, 0.0, 0.0, 0.0, 0.0, 0.0, 0.0, 0.0, 0.0, 0.0, 0.0, 0.0, 0.0, 0.0, 0.0]
---
header: 
  seq: 5465
  stamp: 
    secs: 0
    nsecs:         0
  frame_id: ''
pose: 
  pose: 
    position: 
      x: 4.30688692
      y: -1.4089719
      z: -1.3761288
    orientation: 
      x: -0.0064859
      y: 0.0299319
      z: 0.95875311
      w: 0.28258533
  covariance: [0.0, 0.0, 0.0, 0.0, 0.0, 0.0, 0.0, 0.0, 0.0, 0.0, 0.0, 0.0, 0.0, 0.0, 0.0, 0.0, 0.0, 0.0, 0.0, 0.0, 0.0, 0.0, 0.0, 0.0, 0.0, 0.0, 0.0, 0.0, 0.0, 0.0, 0.0, 0.0, 0.0, 0.0, 0.0, 0.0]
---
header: 
  seq: 5466
  stamp: 
    secs: 0
    nsecs:         0
  frame_id: ''
pose: 
  pose: 
    position: 
      x: 4.26576379
      y: -1.3931193
      z: -1.3689841
    orientation: 
      x: -0.0067914
      y: 0.0297969
      z: 0.95938051
      w: 0.28045506
  covariance: [0.0, 0.0, 0.0, 0.0, 0.0, 0.0, 0.0, 0.0, 0.0, 0.0, 0.0, 0.0, 0.0, 0.0, 0.0, 0.0, 0.0, 0.0, 0.0, 0.0, 0.0, 0.0, 0.0, 0.0, 0.0, 0.0, 0.0, 0.0, 0.0, 0.0, 0.0, 0.0, 0.0, 0.0, 0.0, 0.0]
---
header: 
  seq: 5467
  stamp: 
    secs: 0
    nsecs:         0
  frame_id: ''
pose: 
  pose: 
    position: 
      x: 4.22892149
      y: -1.3762852
      z: -1.3631008
    orientation: 
      x: -0.0012884
      y: 0.02980004
      z: 0.94645686
      w: 0.32144936
  covariance: [0.0, 0.0, 0.0, 0.0, 0.0, 0.0, 0.0, 0.0, 0.0, 0.0, 0.0, 0.0, 0.0, 0.0, 0.0, 0.0, 0.0, 0.0, 0.0, 0.0, 0.0, 0.0, 0.0, 0.0, 0.0, 0.0, 0.0, 0.0, 0.0, 0.0, 0.0, 0.0, 0.0, 0.0, 0.0, 0.0]
---
header: 
  seq: 5468
  stamp: 
    secs: 0
    nsecs:         0
  frame_id: ''
pose: 
  pose: 
    position: 
      x: 4.20713419
      y: -1.3644999
      z: -1.3576587
    orientation: 
      x: 0.00199281
      y: 0.02940232
      z: 0.93331559
      w: 0.35784568
  covariance: [0.0, 0.0, 0.0, 0.0, 0.0, 0.0, 0.0, 0.0, 0.0, 0.0, 0.0, 0.0, 0.0, 0.0, 0.0, 0.0, 0.0, 0.0, 0.0, 0.0, 0.0, 0.0, 0.0, 0.0, 0.0, 0.0, 0.0, 0.0, 0.0, 0.0, 0.0, 0.0, 0.0, 0.0, 0.0, 0.0]
---
header: 
  seq: 5469
  stamp: 
    secs: 0
    nsecs:         0
  frame_id: ''
pose: 
  pose: 
    position: 
      x: 4.18540557
      y: -1.3480665
      z: -1.3509403
    orientation: 
      x: 0.00758466
      y: 0.02840025
      z: 0.90937312
      w: 0.41494145
  covariance: [0.0, 0.0, 0.0, 0.0, 0.0, 0.0, 0.0, 0.0, 0.0, 0.0, 0.0, 0.0, 0.0, 0.0, 0.0, 0.0, 0.0, 0.0, 0.0, 0.0, 0.0, 0.0, 0.0, 0.0, 0.0, 0.0, 0.0, 0.0, 0.0, 0.0, 0.0, 0.0, 0.0, 0.0, 0.0, 0.0]
---
header: 
  seq: 5470
  stamp: 
    secs: 0
    nsecs:         0
  frame_id: ''
pose: 
  pose: 
    position: 
      x: 4.16437367
      y: -1.3297349
      z: -1.342643
    orientation: 
      x: 0.01166191
      y: 0.02688921
      z: 0.88825243
      w: 0.45841966
  covariance: [0.0, 0.0, 0.0, 0.0, 0.0, 0.0, 0.0, 0.0, 0.0, 0.0, 0.0, 0.0, 0.0, 0.0, 0.0, 0.0, 0.0, 0.0, 0.0, 0.0, 0.0, 0.0, 0.0, 0.0, 0.0, 0.0, 0.0, 0.0, 0.0, 0.0, 0.0, 0.0, 0.0, 0.0, 0.0, 0.0]
---
header: 
  seq: 5471
  stamp: 
    secs: 0
    nsecs:         0
  frame_id: ''
pose: 
  pose: 
    position: 
      x: 4.15538693
      y: -1.318587
      z: -1.3383128
    orientation: 
      x: 0.01379191
      y: 0.02574845
      z: 0.87653864
      w: 0.48044438
  covariance: [0.0, 0.0, 0.0, 0.0, 0.0, 0.0, 0.0, 0.0, 0.0, 0.0, 0.0, 0.0, 0.0, 0.0, 0.0, 0.0, 0.0, 0.0, 0.0, 0.0, 0.0, 0.0, 0.0, 0.0, 0.0, 0.0, 0.0, 0.0, 0.0, 0.0, 0.0, 0.0, 0.0, 0.0, 0.0, 0.0]
---
header: 
  seq: 5472
  stamp: 
    secs: 0
    nsecs:         0
  frame_id: ''
pose: 
  pose: 
    position: 
      x: 4.13582746
      y: -1.2992492
      z: -1.329399
    orientation: 
      x: 0.01529468
      y: 0.02498993
      z: 0.86689183
      w: 0.49763453
  covariance: [0.0, 0.0, 0.0, 0.0, 0.0, 0.0, 0.0, 0.0, 0.0, 0.0, 0.0, 0.0, 0.0, 0.0, 0.0, 0.0, 0.0, 0.0, 0.0, 0.0, 0.0, 0.0, 0.0, 0.0, 0.0, 0.0, 0.0, 0.0, 0.0, 0.0, 0.0, 0.0, 0.0, 0.0, 0.0, 0.0]
---
header: 
  seq: 5473
  stamp: 
    secs: 0
    nsecs:         0
  frame_id: ''
pose: 
  pose: 
    position: 
      x: 4.11327618
      y: -1.2785191
      z: -1.3193624
    orientation: 
      x: 0.01567871
      y: 0.02511236
      z: 0.86419109
      w: 0.50229204
  covariance: [0.0, 0.0, 0.0, 0.0, 0.0, 0.0, 0.0, 0.0, 0.0, 0.0, 0.0, 0.0, 0.0, 0.0, 0.0, 0.0, 0.0, 0.0, 0.0, 0.0, 0.0, 0.0, 0.0, 0.0, 0.0, 0.0, 0.0, 0.0, 0.0, 0.0, 0.0, 0.0, 0.0, 0.0, 0.0, 0.0]
---
header: 
  seq: 5474
  stamp: 
    secs: 0
    nsecs:         0
  frame_id: ''
pose: 
  pose: 
    position: 
      x: 4.10167251
      y: -1.2657116
      z: -1.3138631
    orientation: 
      x: 0.01579543
      y: 0.0251802
      z: 0.86374473
      w: 0.50305218
  covariance: [0.0, 0.0, 0.0, 0.0, 0.0, 0.0, 0.0, 0.0, 0.0, 0.0, 0.0, 0.0, 0.0, 0.0, 0.0, 0.0, 0.0, 0.0, 0.0, 0.0, 0.0, 0.0, 0.0, 0.0, 0.0, 0.0, 0.0, 0.0, 0.0, 0.0, 0.0, 0.0, 0.0, 0.0, 0.0, 0.0]
---
header: 
  seq: 5475
  stamp: 
    secs: 0
    nsecs:         0
  frame_id: ''
pose: 
  pose: 
    position: 
      x: 4.08578259
      y: -1.2474064
      z: -1.3061712
    orientation: 
      x: 0.01579103
      y: 0.02506317
      z: 0.86425873
      w: 0.50217458
  covariance: [0.0, 0.0, 0.0, 0.0, 0.0, 0.0, 0.0, 0.0, 0.0, 0.0, 0.0, 0.0, 0.0, 0.0, 0.0, 0.0, 0.0, 0.0, 0.0, 0.0, 0.0, 0.0, 0.0, 0.0, 0.0, 0.0, 0.0, 0.0, 0.0, 0.0, 0.0, 0.0, 0.0, 0.0, 0.0, 0.0]
---
header: 
  seq: 5476
  stamp: 
    secs: 0
    nsecs:         0
  frame_id: ''
pose: 
  pose: 
    position: 
      x: 4.06953674
      y: -1.2336299
      z: -1.2992859
    orientation: 
      x: 0.01582535
      y: 0.02536856
      z: 0.86469563
      w: 0.50140548
  covariance: [0.0, 0.0, 0.0, 0.0, 0.0, 0.0, 0.0, 0.0, 0.0, 0.0, 0.0, 0.0, 0.0, 0.0, 0.0, 0.0, 0.0, 0.0, 0.0, 0.0, 0.0, 0.0, 0.0, 0.0, 0.0, 0.0, 0.0, 0.0, 0.0, 0.0, 0.0, 0.0, 0.0, 0.0, 0.0, 0.0]
---
header: 
  seq: 5477
  stamp: 
    secs: 0
    nsecs:         0
  frame_id: ''
pose: 
  pose: 
    position: 
      x: 4.04903624
      y: -1.214478
      z: -1.2902234
    orientation: 
      x: 0.01599785
      y: 0.02577738
      z: 0.86531914
      w: 0.50030227
  covariance: [0.0, 0.0, 0.0, 0.0, 0.0, 0.0, 0.0, 0.0, 0.0, 0.0, 0.0, 0.0, 0.0, 0.0, 0.0, 0.0, 0.0, 0.0, 0.0, 0.0, 0.0, 0.0, 0.0, 0.0, 0.0, 0.0, 0.0, 0.0, 0.0, 0.0, 0.0, 0.0, 0.0, 0.0, 0.0, 0.0]
---
header: 
  seq: 5478
  stamp: 
    secs: 0
    nsecs:         0
  frame_id: ''
pose: 
  pose: 
    position: 
      x: 4.0435831
      y: -1.2041328
      z: -1.2867085
    orientation: 
      x: 0.01584223
      y: 0.02538726
      z: 0.86615665
      w: 0.49887589
  covariance: [0.0, 0.0, 0.0, 0.0, 0.0, 0.0, 0.0, 0.0, 0.0, 0.0, 0.0, 0.0, 0.0, 0.0, 0.0, 0.0, 0.0, 0.0, 0.0, 0.0, 0.0, 0.0, 0.0, 0.0, 0.0, 0.0, 0.0, 0.0, 0.0, 0.0, 0.0, 0.0, 0.0, 0.0, 0.0, 0.0]
---
header: 
  seq: 5479
  stamp: 
    secs: 0
    nsecs:         0
  frame_id: ''
pose: 
  pose: 
    position: 
      x: 4.02262285
      y: -1.1850927
      z: -1.2775354
    orientation: 
      x: 0.01580807
      y: 0.02582086
      z: 0.86673095
      w: 0.49785623
  covariance: [0.0, 0.0, 0.0, 0.0, 0.0, 0.0, 0.0, 0.0, 0.0, 0.0, 0.0, 0.0, 0.0, 0.0, 0.0, 0.0, 0.0, 0.0, 0.0, 0.0, 0.0, 0.0, 0.0, 0.0, 0.0, 0.0, 0.0, 0.0, 0.0, 0.0, 0.0, 0.0, 0.0, 0.0, 0.0, 0.0]
---
header: 
  seq: 5480
  stamp: 
    secs: 0
    nsecs:         0
  frame_id: ''
pose: 
  pose: 
    position: 
      x: 4.00152755
      y: -1.1666298
      z: -1.2683748
    orientation: 
      x: 0.01612334
      y: 0.02625352
      z: 0.86613599
      w: 0.49885792
  covariance: [0.0, 0.0, 0.0, 0.0, 0.0, 0.0, 0.0, 0.0, 0.0, 0.0, 0.0, 0.0, 0.0, 0.0, 0.0, 0.0, 0.0, 0.0, 0.0, 0.0, 0.0, 0.0, 0.0, 0.0, 0.0, 0.0, 0.0, 0.0, 0.0, 0.0, 0.0, 0.0, 0.0, 0.0, 0.0, 0.0]
---
header: 
  seq: 5481
  stamp: 
    secs: 0
    nsecs:         0
  frame_id: ''
pose: 
  pose: 
    position: 
      x: 3.99358028
      y: -1.1559533
      z: -1.2642412
    orientation: 
      x: 0.01592296
      y: 0.02612574
      z: 0.86615784
      w: 0.49883312
  covariance: [0.0, 0.0, 0.0, 0.0, 0.0, 0.0, 0.0, 0.0, 0.0, 0.0, 0.0, 0.0, 0.0, 0.0, 0.0, 0.0, 0.0, 0.0, 0.0, 0.0, 0.0, 0.0, 0.0, 0.0, 0.0, 0.0, 0.0, 0.0, 0.0, 0.0, 0.0, 0.0, 0.0, 0.0, 0.0, 0.0]
---
header: 
  seq: 5482
  stamp: 
    secs: 0
    nsecs:         0
  frame_id: ''
pose: 
  pose: 
    position: 
      x: 3.97553113
      y: -1.1384118
      z: -1.2560647
    orientation: 
      x: 0.01630648
      y: 0.02597123
      z: 0.86535399
      w: 0.500222
  covariance: [0.0, 0.0, 0.0, 0.0, 0.0, 0.0, 0.0, 0.0, 0.0, 0.0, 0.0, 0.0, 0.0, 0.0, 0.0, 0.0, 0.0, 0.0, 0.0, 0.0, 0.0, 0.0, 0.0, 0.0, 0.0, 0.0, 0.0, 0.0, 0.0, 0.0, 0.0, 0.0, 0.0, 0.0, 0.0, 0.0]
---
header: 
  seq: 5483
  stamp: 
    secs: 0
    nsecs:         0
  frame_id: ''
pose: 
  pose: 
    position: 
      x: 3.96235643
      y: -1.1225564
      z: -1.2494617
    orientation: 
      x: 0.0164023
      y: 0.02587662
      z: 0.86420051
      w: 0.50221393
  covariance: [0.0, 0.0, 0.0, 0.0, 0.0, 0.0, 0.0, 0.0, 0.0, 0.0, 0.0, 0.0, 0.0, 0.0, 0.0, 0.0, 0.0, 0.0, 0.0, 0.0, 0.0, 0.0, 0.0, 0.0, 0.0, 0.0, 0.0, 0.0, 0.0, 0.0, 0.0, 0.0, 0.0, 0.0, 0.0, 0.0]
---
header: 
  seq: 5484
  stamp: 
    secs: 0
    nsecs:         0
  frame_id: ''
pose: 
  pose: 
    position: 
      x: 3.94895714
      y: -1.1103208
      z: -1.2435031
    orientation: 
      x: 0.01658136
      y: 0.02610535
      z: 0.86378515
      w: 0.5029103
  covariance: [0.0, 0.0, 0.0, 0.0, 0.0, 0.0, 0.0, 0.0, 0.0, 0.0, 0.0, 0.0, 0.0, 0.0, 0.0, 0.0, 0.0, 0.0, 0.0, 0.0, 0.0, 0.0, 0.0, 0.0, 0.0, 0.0, 0.0, 0.0, 0.0, 0.0, 0.0, 0.0, 0.0, 0.0, 0.0, 0.0]
---
header: 
  seq: 5485
  stamp: 
    secs: 0
    nsecs:         0
  frame_id: ''
pose: 
  pose: 
    position: 
      x: 3.92644864
      y: -1.0918918
      z: -1.2339111
    orientation: 
      x: 0.01683389
      y: 0.02654053
      z: 0.86245448
      w: 0.50515787
  covariance: [0.0, 0.0, 0.0, 0.0, 0.0, 0.0, 0.0, 0.0, 0.0, 0.0, 0.0, 0.0, 0.0, 0.0, 0.0, 0.0, 0.0, 0.0, 0.0, 0.0, 0.0, 0.0, 0.0, 0.0, 0.0, 0.0, 0.0, 0.0, 0.0, 0.0, 0.0, 0.0, 0.0, 0.0, 0.0, 0.0]
---
header: 
  seq: 5486
  stamp: 
    secs: 0
    nsecs:         0
  frame_id: ''
pose: 
  pose: 
    position: 
      x: 3.91959067
      y: -1.0822646
      z: -1.2302394
    orientation: 
      x: 0.01706458
      y: 0.02654194
      z: 0.86192615
      w: 0.50605101
  covariance: [0.0, 0.0, 0.0, 0.0, 0.0, 0.0, 0.0, 0.0, 0.0, 0.0, 0.0, 0.0, 0.0, 0.0, 0.0, 0.0, 0.0, 0.0, 0.0, 0.0, 0.0, 0.0, 0.0, 0.0, 0.0, 0.0, 0.0, 0.0, 0.0, 0.0, 0.0, 0.0, 0.0, 0.0, 0.0, 0.0]
---
header: 
  seq: 5487
  stamp: 
    secs: 0
    nsecs:         0
  frame_id: ''
pose: 
  pose: 
    position: 
      x: 3.90847417
      y: -1.0677444
      z: -1.2244227
    orientation: 
      x: 0.01718238
      y: 0.02633952
      z: 0.86057526
      w: 0.50835145
  covariance: [0.0, 0.0, 0.0, 0.0, 0.0, 0.0, 0.0, 0.0, 0.0, 0.0, 0.0, 0.0, 0.0, 0.0, 0.0, 0.0, 0.0, 0.0, 0.0, 0.0, 0.0, 0.0, 0.0, 0.0, 0.0, 0.0, 0.0, 0.0, 0.0, 0.0, 0.0, 0.0, 0.0, 0.0, 0.0, 0.0]
---
header: 
  seq: 5488
  stamp: 
    secs: 0
    nsecs:         0
  frame_id: ''
pose: 
  pose: 
    position: 
      x: 3.89642161
      y: -1.0529181
      z: -1.2182379
    orientation: 
      x: 0.01746615
      y: 0.02607937
      z: 0.85965892
      w: 0.50990325
  covariance: [0.0, 0.0, 0.0, 0.0, 0.0, 0.0, 0.0, 0.0, 0.0, 0.0, 0.0, 0.0, 0.0, 0.0, 0.0, 0.0, 0.0, 0.0, 0.0, 0.0, 0.0, 0.0, 0.0, 0.0, 0.0, 0.0, 0.0, 0.0, 0.0, 0.0, 0.0, 0.0, 0.0, 0.0, 0.0, 0.0]
---
header: 
  seq: 5489
  stamp: 
    secs: 0
    nsecs:         0
  frame_id: ''
pose: 
  pose: 
    position: 
      x: 3.88518059
      y: -1.0419316
      z: -1.2129484
    orientation: 
      x: 0.01767586
      y: 0.02633001
      z: 0.85884092
      w: 0.51125978
  covariance: [0.0, 0.0, 0.0, 0.0, 0.0, 0.0, 0.0, 0.0, 0.0, 0.0, 0.0, 0.0, 0.0, 0.0, 0.0, 0.0, 0.0, 0.0, 0.0, 0.0, 0.0, 0.0, 0.0, 0.0, 0.0, 0.0, 0.0, 0.0, 0.0, 0.0, 0.0, 0.0, 0.0, 0.0, 0.0, 0.0]
---
header: 
  seq: 5490
  stamp: 
    secs: 0
    nsecs:         0
  frame_id: ''
pose: 
  pose: 
    position: 
      x: 3.86914774
      y: -1.0256726
      z: -1.2052748
    orientation: 
      x: 0.0178776
      y: 0.02645639
      z: 0.85798893
      w: 0.51267478
  covariance: [0.0, 0.0, 0.0, 0.0, 0.0, 0.0, 0.0, 0.0, 0.0, 0.0, 0.0, 0.0, 0.0, 0.0, 0.0, 0.0, 0.0, 0.0, 0.0, 0.0, 0.0, 0.0, 0.0, 0.0, 0.0, 0.0, 0.0, 0.0, 0.0, 0.0, 0.0, 0.0, 0.0, 0.0, 0.0, 0.0]
---
header: 
  seq: 5491
  stamp: 
    secs: 0
    nsecs:         0
  frame_id: ''
pose: 
  pose: 
    position: 
      x: 3.86139165
      y: -1.0159501
      z: -1.2011263
    orientation: 
      x: 0.01791975
      y: 0.02636278
      z: 0.85783689
      w: 0.51293249
  covariance: [0.0, 0.0, 0.0, 0.0, 0.0, 0.0, 0.0, 0.0, 0.0, 0.0, 0.0, 0.0, 0.0, 0.0, 0.0, 0.0, 0.0, 0.0, 0.0, 0.0, 0.0, 0.0, 0.0, 0.0, 0.0, 0.0, 0.0, 0.0, 0.0, 0.0, 0.0, 0.0, 0.0, 0.0, 0.0, 0.0]
---
header: 
  seq: 5492
  stamp: 
    secs: 0
    nsecs:         0
  frame_id: ''
pose: 
  pose: 
    position: 
      x: 3.84637904
      y: -1.0002685
      z: -1.1938314
    orientation: 
      x: 0.01818652
      y: 0.02646937
      z: 0.8567871
      w: 0.51466928
  covariance: [0.0, 0.0, 0.0, 0.0, 0.0, 0.0, 0.0, 0.0, 0.0, 0.0, 0.0, 0.0, 0.0, 0.0, 0.0, 0.0, 0.0, 0.0, 0.0, 0.0, 0.0, 0.0, 0.0, 0.0, 0.0, 0.0, 0.0, 0.0, 0.0, 0.0, 0.0, 0.0, 0.0, 0.0, 0.0, 0.0]
---
header: 
  seq: 5493
  stamp: 
    secs: 0
    nsecs:         0
  frame_id: ''
pose: 
  pose: 
    position: 
      x: 3.83517438
      y: -0.9897342
      z: -1.1886174
    orientation: 
      x: 0.01845179
      y: 0.02663016
      z: 0.85571721
      w: 0.51642851
  covariance: [0.0, 0.0, 0.0, 0.0, 0.0, 0.0, 0.0, 0.0, 0.0, 0.0, 0.0, 0.0, 0.0, 0.0, 0.0, 0.0, 0.0, 0.0, 0.0, 0.0, 0.0, 0.0, 0.0, 0.0, 0.0, 0.0, 0.0, 0.0, 0.0, 0.0, 0.0, 0.0, 0.0, 0.0, 0.0, 0.0]
---
header: 
  seq: 5494
  stamp: 
    secs: 0
    nsecs:         0
  frame_id: ''
pose: 
  pose: 
    position: 
      x: 3.82036533
      y: -0.9743308
      z: -1.181435
    orientation: 
      x: 0.01854973
      y: 0.02667407
      z: 0.85467389
      w: 0.51814759
  covariance: [0.0, 0.0, 0.0, 0.0, 0.0, 0.0, 0.0, 0.0, 0.0, 0.0, 0.0, 0.0, 0.0, 0.0, 0.0, 0.0, 0.0, 0.0, 0.0, 0.0, 0.0, 0.0, 0.0, 0.0, 0.0, 0.0, 0.0, 0.0, 0.0, 0.0, 0.0, 0.0, 0.0, 0.0, 0.0, 0.0]
---
header: 
  seq: 5495
  stamp: 
    secs: 0
    nsecs:         0
  frame_id: ''
pose: 
  pose: 
    position: 
      x: 3.81076728
      y: -0.963627
      z: -1.1766031
    orientation: 
      x: 0.01868643
      y: 0.0267597
      z: 0.85455592
      w: 0.51833281
  covariance: [0.0, 0.0, 0.0, 0.0, 0.0, 0.0, 0.0, 0.0, 0.0, 0.0, 0.0, 0.0, 0.0, 0.0, 0.0, 0.0, 0.0, 0.0, 0.0, 0.0, 0.0, 0.0, 0.0, 0.0, 0.0, 0.0, 0.0, 0.0, 0.0, 0.0, 0.0, 0.0, 0.0, 0.0, 0.0, 0.0]
---
header: 
  seq: 5496
  stamp: 
    secs: 0
    nsecs:         0
  frame_id: ''
pose: 
  pose: 
    position: 
      x: 3.80161983
      y: -0.9494926
      z: -1.1711422
    orientation: 
      x: 0.01877384
      y: 0.02645481
      z: 0.85423091
      w: 0.51888073
  covariance: [0.0, 0.0, 0.0, 0.0, 0.0, 0.0, 0.0, 0.0, 0.0, 0.0, 0.0, 0.0, 0.0, 0.0, 0.0, 0.0, 0.0, 0.0, 0.0, 0.0, 0.0, 0.0, 0.0, 0.0, 0.0, 0.0, 0.0, 0.0, 0.0, 0.0, 0.0, 0.0, 0.0, 0.0, 0.0, 0.0]
---
header: 
  seq: 5497
  stamp: 
    secs: 0
    nsecs:         0
  frame_id: ''
pose: 
  pose: 
    position: 
      x: 3.78609517
      y: -0.9339829
      z: -1.163771
    orientation: 
      x: 0.01899701
      y: 0.02658919
      z: 0.85345671
      w: 0.52013822
  covariance: [0.0, 0.0, 0.0, 0.0, 0.0, 0.0, 0.0, 0.0, 0.0, 0.0, 0.0, 0.0, 0.0, 0.0, 0.0, 0.0, 0.0, 0.0, 0.0, 0.0, 0.0, 0.0, 0.0, 0.0, 0.0, 0.0, 0.0, 0.0, 0.0, 0.0, 0.0, 0.0, 0.0, 0.0, 0.0, 0.0]
---
header: 
  seq: 5498
  stamp: 
    secs: 0
    nsecs:         0
  frame_id: ''
pose: 
  pose: 
    position: 
      x: 3.77753802
      y: -0.924277
      z: -1.1596012
    orientation: 
      x: 0.01941524
      y: 0.02647338
      z: 0.85221963
      w: 0.52215314
  covariance: [0.0, 0.0, 0.0, 0.0, 0.0, 0.0, 0.0, 0.0, 0.0, 0.0, 0.0, 0.0, 0.0, 0.0, 0.0, 0.0, 0.0, 0.0, 0.0, 0.0, 0.0, 0.0, 0.0, 0.0, 0.0, 0.0, 0.0, 0.0, 0.0, 0.0, 0.0, 0.0, 0.0, 0.0, 0.0, 0.0]
---
header: 
  seq: 5499
  stamp: 
    secs: 0
    nsecs:         0
  frame_id: ''
pose: 
  pose: 
    position: 
      x: 3.76682293
      y: -0.9108837
      z: -1.1536852
    orientation: 
      x: 0.01904355
      y: 0.02693534
      z: 0.85279343
      w: 0.5212055
  covariance: [0.0, 0.0, 0.0, 0.0, 0.0, 0.0, 0.0, 0.0, 0.0, 0.0, 0.0, 0.0, 0.0, 0.0, 0.0, 0.0, 0.0, 0.0, 0.0, 0.0, 0.0, 0.0, 0.0, 0.0, 0.0, 0.0, 0.0, 0.0, 0.0, 0.0, 0.0, 0.0, 0.0, 0.0, 0.0, 0.0]
---
header: 
  seq: 5500
  stamp: 
    secs: 0
    nsecs:         0
  frame_id: ''
pose: 
  pose: 
    position: 
      x: 3.76415067
      y: -0.9026094
      z: -1.1511113
    orientation: 
      x: 0.01898384
      y: 0.02675253
      z: 0.8533275
      w: 0.52034227
  covariance: [0.0, 0.0, 0.0, 0.0, 0.0, 0.0, 0.0, 0.0, 0.0, 0.0, 0.0, 0.0, 0.0, 0.0, 0.0, 0.0, 0.0, 0.0, 0.0, 0.0, 0.0, 0.0, 0.0, 0.0, 0.0, 0.0, 0.0, 0.0, 0.0, 0.0, 0.0, 0.0, 0.0, 0.0, 0.0, 0.0]
---
header: 
  seq: 5501
  stamp: 
    secs: 0
    nsecs:         0
  frame_id: ''
pose: 
  pose: 
    position: 
      x: 3.74522297
      y: -0.8863754
      z: -1.142715
    orientation: 
      x: 0.01920203
      y: 0.02704732
      z: 0.8523618
      w: 0.52189948
  covariance: [0.0, 0.0, 0.0, 0.0, 0.0, 0.0, 0.0, 0.0, 0.0, 0.0, 0.0, 0.0, 0.0, 0.0, 0.0, 0.0, 0.0, 0.0, 0.0, 0.0, 0.0, 0.0, 0.0, 0.0, 0.0, 0.0, 0.0, 0.0, 0.0, 0.0, 0.0, 0.0, 0.0, 0.0, 0.0, 0.0]
---
header: 
  seq: 5502
  stamp: 
    secs: 0
    nsecs:         0
  frame_id: ''
pose: 
  pose: 
    position: 
      x: 3.73141305
      y: -0.8719053
      z: -1.1359455
    orientation: 
      x: 0.01918811
      y: 0.02728806
      z: 0.85266122
      w: 0.52139812
  covariance: [0.0, 0.0, 0.0, 0.0, 0.0, 0.0, 0.0, 0.0, 0.0, 0.0, 0.0, 0.0, 0.0, 0.0, 0.0, 0.0, 0.0, 0.0, 0.0, 0.0, 0.0, 0.0, 0.0, 0.0, 0.0, 0.0, 0.0, 0.0, 0.0, 0.0, 0.0, 0.0, 0.0, 0.0, 0.0, 0.0]
---
header: 
  seq: 5503
  stamp: 
    secs: 0
    nsecs:         0
  frame_id: ''
pose: 
  pose: 
    position: 
      x: 3.7218548
      y: -0.8621217
      z: -1.1312513
    orientation: 
      x: 0.01942752
      y: 0.02733919
      z: 0.85181645
      w: 0.52276559
  covariance: [0.0, 0.0, 0.0, 0.0, 0.0, 0.0, 0.0, 0.0, 0.0, 0.0, 0.0, 0.0, 0.0, 0.0, 0.0, 0.0, 0.0, 0.0, 0.0, 0.0, 0.0, 0.0, 0.0, 0.0, 0.0, 0.0, 0.0, 0.0, 0.0, 0.0, 0.0, 0.0, 0.0, 0.0, 0.0, 0.0]
---
header: 
  seq: 5504
  stamp: 
    secs: 0
    nsecs:         0
  frame_id: ''
pose: 
  pose: 
    position: 
      x: 3.71074956
      y: -0.848525
      z: -1.1253221
    orientation: 
      x: 0.01982186
      y: 0.02722192
      z: 0.85065358
      w: 0.52464705
  covariance: [0.0, 0.0, 0.0, 0.0, 0.0, 0.0, 0.0, 0.0, 0.0, 0.0, 0.0, 0.0, 0.0, 0.0, 0.0, 0.0, 0.0, 0.0, 0.0, 0.0, 0.0, 0.0, 0.0, 0.0, 0.0, 0.0, 0.0, 0.0, 0.0, 0.0, 0.0, 0.0, 0.0, 0.0, 0.0, 0.0]
---
header: 
  seq: 5505
  stamp: 
    secs: 0
    nsecs:         0
  frame_id: ''
pose: 
  pose: 
    position: 
      x: 3.70748814
      y: -0.8404276
      z: -1.1226335
    orientation: 
      x: 0.0197057
      y: 0.02703551
      z: 0.85038451
      w: 0.52509707
  covariance: [0.0, 0.0, 0.0, 0.0, 0.0, 0.0, 0.0, 0.0, 0.0, 0.0, 0.0, 0.0, 0.0, 0.0, 0.0, 0.0, 0.0, 0.0, 0.0, 0.0, 0.0, 0.0, 0.0, 0.0, 0.0, 0.0, 0.0, 0.0, 0.0, 0.0, 0.0, 0.0, 0.0, 0.0, 0.0, 0.0]
---
header: 
  seq: 5506
  stamp: 
    secs: 0
    nsecs:         0
  frame_id: ''
pose: 
  pose: 
    position: 
      x: 3.69410791
      y: -0.8264201
      z: -1.1160179
    orientation: 
      x: 0.02008917
      y: 0.02724333
      z: 0.84867089
      w: 0.52783703
  covariance: [0.0, 0.0, 0.0, 0.0, 0.0, 0.0, 0.0, 0.0, 0.0, 0.0, 0.0, 0.0, 0.0, 0.0, 0.0, 0.0, 0.0, 0.0, 0.0, 0.0, 0.0, 0.0, 0.0, 0.0, 0.0, 0.0, 0.0, 0.0, 0.0, 0.0, 0.0, 0.0, 0.0, 0.0, 0.0, 0.0]
---
header: 
  seq: 5507
  stamp: 
    secs: 0
    nsecs:         0
  frame_id: ''
pose: 
  pose: 
    position: 
      x: 3.68651701
      y: -0.8173316
      z: -1.1120046
    orientation: 
      x: 0.02013083
      y: 0.02716425
      z: 0.84753659
      w: 0.52965891
  covariance: [0.0, 0.0, 0.0, 0.0, 0.0, 0.0, 0.0, 0.0, 0.0, 0.0, 0.0, 0.0, 0.0, 0.0, 0.0, 0.0, 0.0, 0.0, 0.0, 0.0, 0.0, 0.0, 0.0, 0.0, 0.0, 0.0, 0.0, 0.0, 0.0, 0.0, 0.0, 0.0, 0.0, 0.0, 0.0, 0.0]
---
header: 
  seq: 5508
  stamp: 
    secs: 0
    nsecs:         0
  frame_id: ''
pose: 
  pose: 
    position: 
      x: 3.67329545
      y: -0.8029182
      z: -1.1053061
    orientation: 
      x: 0.02044722
      y: 0.02684346
      z: 0.84626283
      w: 0.53169592
  covariance: [0.0, 0.0, 0.0, 0.0, 0.0, 0.0, 0.0, 0.0, 0.0, 0.0, 0.0, 0.0, 0.0, 0.0, 0.0, 0.0, 0.0, 0.0, 0.0, 0.0, 0.0, 0.0, 0.0, 0.0, 0.0, 0.0, 0.0, 0.0, 0.0, 0.0, 0.0, 0.0, 0.0, 0.0, 0.0, 0.0]
---
header: 
  seq: 5509
  stamp: 
    secs: 0
    nsecs:         0
  frame_id: ''
pose: 
  pose: 
    position: 
      x: 3.65912563
      y: -0.7887469
      z: -1.0983687
    orientation: 
      x: 0.02060678
      y: 0.02691202
      z: 0.84540141
      w: 0.53305493
  covariance: [0.0, 0.0, 0.0, 0.0, 0.0, 0.0, 0.0, 0.0, 0.0, 0.0, 0.0, 0.0, 0.0, 0.0, 0.0, 0.0, 0.0, 0.0, 0.0, 0.0, 0.0, 0.0, 0.0, 0.0, 0.0, 0.0, 0.0, 0.0, 0.0, 0.0, 0.0, 0.0, 0.0, 0.0, 0.0, 0.0]
---
header: 
  seq: 5510
  stamp: 
    secs: 0
    nsecs:         0
  frame_id: ''
pose: 
  pose: 
    position: 
      x: 3.64881715
      y: -0.7788637
      z: -1.0934473
    orientation: 
      x: 0.02065884
      y: 0.02716296
      z: 0.84493081
      w: 0.53378581
  covariance: [0.0, 0.0, 0.0, 0.0, 0.0, 0.0, 0.0, 0.0, 0.0, 0.0, 0.0, 0.0, 0.0, 0.0, 0.0, 0.0, 0.0, 0.0, 0.0, 0.0, 0.0, 0.0, 0.0, 0.0, 0.0, 0.0, 0.0, 0.0, 0.0, 0.0, 0.0, 0.0, 0.0, 0.0, 0.0, 0.0]
---
header: 
  seq: 5511
  stamp: 
    secs: 0
    nsecs:         0
  frame_id: ''
pose: 
  pose: 
    position: 
      x: 3.63736296
      y: -0.7649087
      z: -1.0872913
    orientation: 
      x: 0.02073508
      y: 0.02724205
      z: 0.84485895
      w: 0.53389256
  covariance: [0.0, 0.0, 0.0, 0.0, 0.0, 0.0, 0.0, 0.0, 0.0, 0.0, 0.0, 0.0, 0.0, 0.0, 0.0, 0.0, 0.0, 0.0, 0.0, 0.0, 0.0, 0.0, 0.0, 0.0, 0.0, 0.0, 0.0, 0.0, 0.0, 0.0, 0.0, 0.0, 0.0, 0.0, 0.0, 0.0]
---
header: 
  seq: 5512
  stamp: 
    secs: 0
    nsecs:         0
  frame_id: ''
pose: 
  pose: 
    position: 
      x: 3.63288493
      y: -0.7566424
      z: -1.0841896
    orientation: 
      x: 0.02075492
      y: 0.02708502
      z: 0.84459114
      w: 0.53432333
  covariance: [0.0, 0.0, 0.0, 0.0, 0.0, 0.0, 0.0, 0.0, 0.0, 0.0, 0.0, 0.0, 0.0, 0.0, 0.0, 0.0, 0.0, 0.0, 0.0, 0.0, 0.0, 0.0, 0.0, 0.0, 0.0, 0.0, 0.0, 0.0, 0.0, 0.0, 0.0, 0.0, 0.0, 0.0, 0.0, 0.0]
---
header: 
  seq: 5513
  stamp: 
    secs: 0
    nsecs:         0
  frame_id: ''
pose: 
  pose: 
    position: 
      x: 3.61894164
      y: -0.7429859
      z: -1.0774754
    orientation: 
      x: 0.02071907
      y: 0.02746279
      z: 0.84491819
      w: 0.53378812
  covariance: [0.0, 0.0, 0.0, 0.0, 0.0, 0.0, 0.0, 0.0, 0.0, 0.0, 0.0, 0.0, 0.0, 0.0, 0.0, 0.0, 0.0, 0.0, 0.0, 0.0, 0.0, 0.0, 0.0, 0.0, 0.0, 0.0, 0.0, 0.0, 0.0, 0.0, 0.0, 0.0, 0.0, 0.0, 0.0, 0.0]
---
header: 
  seq: 5514
  stamp: 
    secs: 0
    nsecs:         0
  frame_id: ''
pose: 
  pose: 
    position: 
      x: 3.60516645
      y: -0.7292604
      z: -1.0707783
    orientation: 
      x: 0.02074176
      y: 0.02770358
      z: 0.84473149
      w: 0.5340702
  covariance: [0.0, 0.0, 0.0, 0.0, 0.0, 0.0, 0.0, 0.0, 0.0, 0.0, 0.0, 0.0, 0.0, 0.0, 0.0, 0.0, 0.0, 0.0, 0.0, 0.0, 0.0, 0.0, 0.0, 0.0, 0.0, 0.0, 0.0, 0.0, 0.0, 0.0, 0.0, 0.0, 0.0, 0.0, 0.0, 0.0]
---
header: 
  seq: 5515
  stamp: 
    secs: 0
    nsecs:         0
  frame_id: ''
pose: 
  pose: 
    position: 
      x: 3.59364534
      y: -0.7193797
      z: -1.0654957
    orientation: 
      x: 0.02061944
      y: 0.02799543
      z: 0.84498552
      w: 0.53365771
  covariance: [0.0, 0.0, 0.0, 0.0, 0.0, 0.0, 0.0, 0.0, 0.0, 0.0, 0.0, 0.0, 0.0, 0.0, 0.0, 0.0, 0.0, 0.0, 0.0, 0.0, 0.0, 0.0, 0.0, 0.0, 0.0, 0.0, 0.0, 0.0, 0.0, 0.0, 0.0, 0.0, 0.0, 0.0, 0.0, 0.0]
---
header: 
  seq: 5516
  stamp: 
    secs: 0
    nsecs:         0
  frame_id: ''
pose: 
  pose: 
    position: 
      x: 3.58815764
      y: -0.7082015
      z: -1.0614482
    orientation: 
      x: 0.02084109
      y: 0.02785457
      z: 0.84493668
      w: 0.53373379
  covariance: [0.0, 0.0, 0.0, 0.0, 0.0, 0.0, 0.0, 0.0, 0.0, 0.0, 0.0, 0.0, 0.0, 0.0, 0.0, 0.0, 0.0, 0.0, 0.0, 0.0, 0.0, 0.0, 0.0, 0.0, 0.0, 0.0, 0.0, 0.0, 0.0, 0.0, 0.0, 0.0, 0.0, 0.0, 0.0, 0.0]
---
header: 
  seq: 5517
  stamp: 
    secs: 0
    nsecs:         0
  frame_id: ''
pose: 
  pose: 
    position: 
      x: 3.580439
      y: -0.6995009
      z: -1.0574168
    orientation: 
      x: 0.02069164
      y: 0.0280412
      z: 0.84511989
      w: 0.5334397
  covariance: [0.0, 0.0, 0.0, 0.0, 0.0, 0.0, 0.0, 0.0, 0.0, 0.0, 0.0, 0.0, 0.0, 0.0, 0.0, 0.0, 0.0, 0.0, 0.0, 0.0, 0.0, 0.0, 0.0, 0.0, 0.0, 0.0, 0.0, 0.0, 0.0, 0.0, 0.0, 0.0, 0.0, 0.0, 0.0, 0.0]
---
header: 
  seq: 5518
  stamp: 
    secs: 0
    nsecs:         0
  frame_id: ''
pose: 
  pose: 
    position: 
      x: 3.56786047
      y: -0.6866034
      z: -1.0511271
    orientation: 
      x: 0.02094169
      y: 0.02824217
      z: 0.84482478
      w: 0.5338866
  covariance: [0.0, 0.0, 0.0, 0.0, 0.0, 0.0, 0.0, 0.0, 0.0, 0.0, 0.0, 0.0, 0.0, 0.0, 0.0, 0.0, 0.0, 0.0, 0.0, 0.0, 0.0, 0.0, 0.0, 0.0, 0.0, 0.0, 0.0, 0.0, 0.0, 0.0, 0.0, 0.0, 0.0, 0.0, 0.0, 0.0]
---
header: 
  seq: 5519
  stamp: 
    secs: 0
    nsecs:         0
  frame_id: ''
pose: 
  pose: 
    position: 
      x: 3.56902024
      y: -0.6795583
      z: -1.0496242
    orientation: 
      x: 0.02094802
      y: 0.02791476
      z: 0.84514815
      w: 0.53339154
  covariance: [0.0, 0.0, 0.0, 0.0, 0.0, 0.0, 0.0, 0.0, 0.0, 0.0, 0.0, 0.0, 0.0, 0.0, 0.0, 0.0, 0.0, 0.0, 0.0, 0.0, 0.0, 0.0, 0.0, 0.0, 0.0, 0.0, 0.0, 0.0, 0.0, 0.0, 0.0, 0.0, 0.0, 0.0, 0.0, 0.0]
---
header: 
  seq: 5520
  stamp: 
    secs: 0
    nsecs:         0
  frame_id: ''
pose: 
  pose: 
    position: 
      x: 3.5503634
      y: -0.6656241
      z: -1.0416073
    orientation: 
      x: 0.02101182
      y: 0.02851021
      z: 0.84428672
      w: 0.53472011
  covariance: [0.0, 0.0, 0.0, 0.0, 0.0, 0.0, 0.0, 0.0, 0.0, 0.0, 0.0, 0.0, 0.0, 0.0, 0.0, 0.0, 0.0, 0.0, 0.0, 0.0, 0.0, 0.0, 0.0, 0.0, 0.0, 0.0, 0.0, 0.0, 0.0, 0.0, 0.0, 0.0, 0.0, 0.0, 0.0, 0.0]
---
header: 
  seq: 5521
  stamp: 
    secs: 0
    nsecs:         0
  frame_id: ''
pose: 
  pose: 
    position: 
      x: 3.54156838
      y: -0.653385
      z: -1.0364691
    orientation: 
      x: 0.02117692
      y: 0.02838024
      z: 0.84428459
      w: 0.53472387
  covariance: [0.0, 0.0, 0.0, 0.0, 0.0, 0.0, 0.0, 0.0, 0.0, 0.0, 0.0, 0.0, 0.0, 0.0, 0.0, 0.0, 0.0, 0.0, 0.0, 0.0, 0.0, 0.0, 0.0, 0.0, 0.0, 0.0, 0.0, 0.0, 0.0, 0.0, 0.0, 0.0, 0.0, 0.0, 0.0, 0.0]
---
header: 
  seq: 5522
  stamp: 
    secs: 0
    nsecs:         0
  frame_id: ''
pose: 
  pose: 
    position: 
      x: 3.53372554
      y: -0.6446125
      z: -1.0324188
    orientation: 
      x: 0.02114398
      y: 0.02845888
      z: 0.84419178
      w: 0.5348675
  covariance: [0.0, 0.0, 0.0, 0.0, 0.0, 0.0, 0.0, 0.0, 0.0, 0.0, 0.0, 0.0, 0.0, 0.0, 0.0, 0.0, 0.0, 0.0, 0.0, 0.0, 0.0, 0.0, 0.0, 0.0, 0.0, 0.0, 0.0, 0.0, 0.0, 0.0, 0.0, 0.0, 0.0, 0.0, 0.0, 0.0]
---
header: 
  seq: 5523
  stamp: 
    secs: 0
    nsecs:         0
  frame_id: ''
pose: 
  pose: 
    position: 
      x: 3.5210945
      y: -0.6316858
      z: -1.0261576
    orientation: 
      x: 0.02134955
      y: 0.02858119
      z: 0.84408689
      w: 0.53501833
  covariance: [0.0, 0.0, 0.0, 0.0, 0.0, 0.0, 0.0, 0.0, 0.0, 0.0, 0.0, 0.0, 0.0, 0.0, 0.0, 0.0, 0.0, 0.0, 0.0, 0.0, 0.0, 0.0, 0.0, 0.0, 0.0, 0.0, 0.0, 0.0, 0.0, 0.0, 0.0, 0.0, 0.0, 0.0, 0.0, 0.0]
---
header: 
  seq: 5524
  stamp: 
    secs: 0
    nsecs:         0
  frame_id: ''
pose: 
  pose: 
    position: 
      x: 3.50898808
      y: -0.6184617
      z: -1.0198832
    orientation: 
      x: 0.02147409
      y: 0.0287387
      z: 0.84335382
      w: 0.53615975
  covariance: [0.0, 0.0, 0.0, 0.0, 0.0, 0.0, 0.0, 0.0, 0.0, 0.0, 0.0, 0.0, 0.0, 0.0, 0.0, 0.0, 0.0, 0.0, 0.0, 0.0, 0.0, 0.0, 0.0, 0.0, 0.0, 0.0, 0.0, 0.0, 0.0, 0.0, 0.0, 0.0, 0.0, 0.0, 0.0, 0.0]
---
header: 
  seq: 5525
  stamp: 
    secs: 0
    nsecs:         0
  frame_id: ''
pose: 
  pose: 
    position: 
      x: 3.50824377
      y: -0.6115513
      z: -1.0179956
    orientation: 
      x: 0.02139858
      y: 0.02846855
      z: 0.84381611
      w: 0.53544934
  covariance: [0.0, 0.0, 0.0, 0.0, 0.0, 0.0, 0.0, 0.0, 0.0, 0.0, 0.0, 0.0, 0.0, 0.0, 0.0, 0.0, 0.0, 0.0, 0.0, 0.0, 0.0, 0.0, 0.0, 0.0, 0.0, 0.0, 0.0, 0.0, 0.0, 0.0, 0.0, 0.0, 0.0, 0.0, 0.0, 0.0]
---
header: 
  seq: 5526
  stamp: 
    secs: 0
    nsecs:         0
  frame_id: ''
pose: 
  pose: 
    position: 
      x: 3.49551477
      y: -0.5985262
      z: -1.0116958
    orientation: 
      x: 0.02131316
      y: 0.02881049
      z: 0.84365985
      w: 0.53568065
  covariance: [0.0, 0.0, 0.0, 0.0, 0.0, 0.0, 0.0, 0.0, 0.0, 0.0, 0.0, 0.0, 0.0, 0.0, 0.0, 0.0, 0.0, 0.0, 0.0, 0.0, 0.0, 0.0, 0.0, 0.0, 0.0, 0.0, 0.0, 0.0, 0.0, 0.0, 0.0, 0.0, 0.0, 0.0, 0.0, 0.0]
---
header: 
  seq: 5527
  stamp: 
    secs: 0
    nsecs:         0
  frame_id: ''
pose: 
  pose: 
    position: 
      x: 3.48621069
      y: -0.5900999
      z: -1.007309
    orientation: 
      x: 0.02150847
      y: 0.02895126
      z: 0.84327723
      w: 0.53626738
  covariance: [0.0, 0.0, 0.0, 0.0, 0.0, 0.0, 0.0, 0.0, 0.0, 0.0, 0.0, 0.0, 0.0, 0.0, 0.0, 0.0, 0.0, 0.0, 0.0, 0.0, 0.0, 0.0, 0.0, 0.0, 0.0, 0.0, 0.0, 0.0, 0.0, 0.0, 0.0, 0.0, 0.0, 0.0, 0.0, 0.0]
---
header: 
  seq: 5528
  stamp: 
    secs: 0
    nsecs:         0
  frame_id: ''
pose: 
  pose: 
    position: 
      x: 3.47926994
      y: -0.5781296
      z: -1.0026495
    orientation: 
      x: 0.02122287
      y: 0.02891936
      z: 0.8437327
      w: 0.53556361
  covariance: [0.0, 0.0, 0.0, 0.0, 0.0, 0.0, 0.0, 0.0, 0.0, 0.0, 0.0, 0.0, 0.0, 0.0, 0.0, 0.0, 0.0, 0.0, 0.0, 0.0, 0.0, 0.0, 0.0, 0.0, 0.0, 0.0, 0.0, 0.0, 0.0, 0.0, 0.0, 0.0, 0.0, 0.0, 0.0, 0.0]
---
header: 
  seq: 5529
  stamp: 
    secs: 0
    nsecs:         0
  frame_id: ''
pose: 
  pose: 
    position: 
      x: 3.46919564
      y: -0.566358
      z: -0.9972969
    orientation: 
      x: 0.02140548
      y: 0.02894045
      z: 0.84320589
      w: 0.53638425
  covariance: [0.0, 0.0, 0.0, 0.0, 0.0, 0.0, 0.0, 0.0, 0.0, 0.0, 0.0, 0.0, 0.0, 0.0, 0.0, 0.0, 0.0, 0.0, 0.0, 0.0, 0.0, 0.0, 0.0, 0.0, 0.0, 0.0, 0.0, 0.0, 0.0, 0.0, 0.0, 0.0, 0.0, 0.0, 0.0, 0.0]
---
header: 
  seq: 5530
  stamp: 
    secs: 0
    nsecs:         0
  frame_id: ''
pose: 
  pose: 
    position: 
      x: 3.46132004
      y: -0.5583274
      z: -0.9933884
    orientation: 
      x: 0.02126046
      y: 0.02924452
      z: 0.84352524
      w: 0.53587117
  covariance: [0.0, 0.0, 0.0, 0.0, 0.0, 0.0, 0.0, 0.0, 0.0, 0.0, 0.0, 0.0, 0.0, 0.0, 0.0, 0.0, 0.0, 0.0, 0.0, 0.0, 0.0, 0.0, 0.0, 0.0, 0.0, 0.0, 0.0, 0.0, 0.0, 0.0, 0.0, 0.0, 0.0, 0.0, 0.0, 0.0]
---
header: 
  seq: 5531
  stamp: 
    secs: 0
    nsecs:         0
  frame_id: ''
pose: 
  pose: 
    position: 
      x: 3.45055654
      y: -0.5462757
      z: -0.987754
    orientation: 
      x: 0.02150375
      y: 0.02921966
      z: 0.84284805
      w: 0.53692732
  covariance: [0.0, 0.0, 0.0, 0.0, 0.0, 0.0, 0.0, 0.0, 0.0, 0.0, 0.0, 0.0, 0.0, 0.0, 0.0, 0.0, 0.0, 0.0, 0.0, 0.0, 0.0, 0.0, 0.0, 0.0, 0.0, 0.0, 0.0, 0.0, 0.0, 0.0, 0.0, 0.0, 0.0, 0.0, 0.0, 0.0]
---
header: 
  seq: 5532
  stamp: 
    secs: 0
    nsecs:         0
  frame_id: ''
pose: 
  pose: 
    position: 
      x: 3.44565335
      y: -0.5390323
      z: -0.9847143
    orientation: 
      x: 0.02159706
      y: 0.0292866
      z: 0.84287483
      w: 0.53687789
